[{"label":"Green Fins","region":"Moalboal","name":"Cebu Fun Divers","certification_level":"certified gold member","website":"https:\/\/cebufundivers.com\/","email":"info@cebufundivers.com","latitude":9.9436213,"longitude":123.3688108,"geocoding_status":"OK"},{"label":"Green Fins","region":"Moalboal","name":"Savedra Dive Center","certification_level":"certified gold member","website":"https:\/\/www.savedra.com","email":"info@savedra.com","latitude":9.9489353,"longitude":123.3660847,"geocoding_status":"OK"},{"label":"Green Fins","region":"Moalboal","name":"Amigos Dive Center","certification_level":"certified silver member","website":"https:\/\/diveinamigos.com\/","email":"diveinamigos@gmail.com","latitude":9.9491032,"longitude":123.3658329,"geocoding_status":"OK"},{"label":"Green Fins","region":"Moalboal","name":"June Dive Resort","certification_level":"certified silver member","website":"http:\/\/www.junedive.com\/","email":"styxguy@gmail.com","latitude":9.950931,"longitude":123.365626,"geocoding_status":"OK"},{"label":"Green Fins","region":"Moalboal","name":"Lion Dive Centre","certification_level":"certified silver member","website":"http:\/\/www.liondivecentre.com\/","email":"liondivecentre@gmail.com","latitude":9.9504936,"longitude":123.366767,"geocoding_status":"OK"},{"label":"Green Fins","region":"Moalboal","name":"MB Ocean Blue \/ Blue Ring","certification_level":"certified silver member","website":"https:\/\/www.moalboaldive.com","email":"dive1@naver.com","latitude":9.9496491,"longitude":123.3655274,"geocoding_status":"OK"},{"label":"Green Fins","region":"Moalboal","name":"Ocean Passion","certification_level":"certified silver member","website":"https:\/\/www.seaquestdivecenter.ph","email":"moalboal@seaquestdivecenter.ph","latitude":9.9502755,"longitude":123.3658118,"geocoding_status":"OK"},{"label":"Green Fins","region":"Coron","name":"CLUB PARADISE DIVERS","certification_level":"certified gold member","website":"https:\/\/www.discoveryfleet.com","email":"info@clubparadisedivers.com","latitude":12.2325755,"longitude":120.0892923,"geocoding_status":"OK"},{"label":"Green Fins","region":"Coron","name":"Corto Divers","certification_level":"certified silver member","website":"https:\/\/www.cortodivers.com","email":"cortodivers@cortodelmar.com","latitude":12.00089,"longitude":120.1996336,"geocoding_status":"OK"},{"label":"Green Fins","region":"Coron","name":"French Kiss Divers Coron","certification_level":"certified silver member","website":"https:\/\/www.facebook.com\/profile.php?id=100089061721434","email":"duazojes33@gmail.com","latitude":12.000544,"longitude":120.2005077,"geocoding_status":"OK"},{"label":"Green Fins","region":"Coron","name":"MDI DIVERS","certification_level":"certified silver member","website":"https:\/\/www.mdidiverscenter.com","email":"mdidivers1234@gmail.com","latitude":12.0012649,"longitude":120.2006395,"geocoding_status":"OK"},{"label":"Green Fins","region":"Coron","name":"Safety Stop Dive Shop","certification_level":"certified silver member","website":"https:\/\/www.safetystopdiveshop.com","email":"safetystopdiveshop@gmail.com","latitude":11.9988997,"longitude":120.2022431,"geocoding_status":"OK"},{"label":"Green Fins","region":"Coron","name":"Sangat Island Dive Resort","certification_level":"certified silver member","website":"https:\/\/sangat.com.ph\/","email":"dive@sangat.ph","latitude":11.9634389,"longitude":120.0704177,"geocoding_status":"OK"},{"label":"Green Fins","region":"Coron","name":"Pirate Divers Busuanga","certification_level":"certified bronze member","website":"https:\/\/www.piratediverscoron.com","email":"info@piratediverscoron.com","latitude":12.0313489,"longitude":119.9849223,"geocoding_status":"OK"},{"label":"Green Fins","region":"Malapascua Island","name":"Evolution","certification_level":"certified gold member","website":"https:\/\/evolution.com.ph\/","email":"info@evolution.com.ph","latitude":11.3291463,"longitude":124.1211471,"geocoding_status":"OK"},{"label":"Green Fins","region":"Malapascua Island","name":"Thresher Shark Divers","certification_level":"certified gold member","website":"https:\/\/malapascua-diving.com\/","email":"dive@thresherdivers.com","latitude":11.3271045,"longitude":124.1151953,"geocoding_status":"OK"},{"label":"Green Fins","region":"Malapascua Island","name":"Devocean Divers","certification_level":"certified silver member","website":"https:\/\/devoceandivers.com\/","email":"malapascua@devoceandivers.com","latitude":11.3358464,"longitude":124.1156362,"geocoding_status":"OK"},{"label":"Green Fins","region":"Malapascua Island","name":"Malapascua Scuba Eco-Adventures","certification_level":"certified silver member","website":"https:\/\/www.malapascuascuba.com","email":"malapascubascuba@gmail.com","latitude":11.329882,"longitude":124.1211321,"geocoding_status":"OK"},{"label":"Green Fins","region":"Malapascua Island","name":"Dan's Dive","certification_level":"certified bronze member","website":"Pas de lien","email":"dansdives@gmail.com","latitude":11.3358464,"longitude":124.1156362,"geocoding_status":"OK"},{"label":"Green Fins","region":"El Nido","name":"Alexzus Travel and Tours","certification_level":"certified silver member","website":"https:\/\/www.facebook.com\/kristinegrace.sulad?mibextid=avESrC","email":"ibonjoannerachel@gmail.com","latitude":11.1805454,"longitude":119.3893187,"geocoding_status":"OK"},{"label":"Green Fins","region":"El Nido","name":"Dou's Hermanos Travel and Tour","certification_level":"certified bronze member","website":"https:\/\/www.facebook.com\/GoldenMonkeyPh","email":"doshermanos1082@gmail.com","latitude":11.1795644,"longitude":119.3890393,"geocoding_status":"OK"},{"label":"Green Fins","region":"El Nido","name":"Go Paradise Travel & Tours","certification_level":"certified bronze member","website":"https:\/\/www.goparadise.org\/","email":"info@goparadise.org","latitude":11.1799144,"longitude":119.3896229,"geocoding_status":"OK"},{"label":"Green Fins","region":"El Nido","name":"Krischana travel and tours","certification_level":"certified bronze member","website":"https:\/\/www.facebook.com\/krischanatravelagencyElnidopalawan","email":"chadalpas84@gmail.com","latitude":11.1802414,"longitude":119.3872474,"geocoding_status":"OK"},{"label":"Green Fins","region":"El Nido","name":"Spider Travel and Tours","certification_level":"certified bronze member","website":"https:\/\/www.facebook.com\/SpiderTravelTour","email":"spidertravelandtours@outlook.com","latitude":11.1812113,"longitude":119.3912548,"geocoding_status":"OK"},{"label":"Green Fins","region":"El Nido","name":"Tarawis El Nido Island Tours","certification_level":"certified bronze member","website":"https:\/\/www.tarawiselnidoislandtours.com","email":"tarawiselnidoislandtours19@gmail.com","latitude":11.1784484,"longitude":119.3899944,"geocoding_status":"OK"},{"label":"Green Fins","region":"Puerto Galera","name":"Arkipelago Divers & Beach Resort","certification_level":"certified silver member","website":"https:\/\/www.arkipelagodivers.com\/en\/","email":"reservations@arkipelagodivers.com","latitude":13.5230974,"longitude":120.9710025,"geocoding_status":"OK"},{"label":"Green Fins","region":"Puerto Galera","name":"Mindoro Coral Reef Safari","certification_level":"certified silver member","website":"https:\/\/coralreefsafari.eco\/safaris\/mindoro-coral-reef-safari\/","email":"mindoro@coralreefsafari.eco","latitude":13.5206262,"longitude":120.975038,"geocoding_status":"OK"},{"label":"Green Fins","region":"Puerto Galera","name":"Scandi Divers","certification_level":"certified silver member","website":"https:\/\/scandidivers.com\/","email":"Info@ScandiDivers.com","latitude":13.524726,"longitude":120.9679502,"geocoding_status":"OK"},{"label":"Green Fins","region":"Panglao Island","name":"Blue Revival Diving College","certification_level":"certified silver member","website":"https:\/\/www.dive-bohol.com","email":"bluerevivaldive@gmail.com","latitude":9.5534135,"longitude":123.7848413,"geocoding_status":"OK"},{"label":"Green Fins","region":"Panglao Island","name":"Valm Divers","certification_level":"certified silver member","website":"https:\/\/www.valmdiversbohol.com","email":"info@valmdiversbohol.com","latitude":9.5486308,"longitude":123.7733949,"geocoding_status":"OK"},{"label":"Green Fins","region":"Bohol","name":"Ecological Divers Diving Center","certification_level":"certified silver member","website":"https:\/\/www.boholecodivers.com","email":"boholecodivers@gmail.com","latitude":9.5493871,"longitude":123.7567498,"geocoding_status":"OK"},{"label":"Green Fins","region":"Bohol","name":"MARIO DIVE RESORT","certification_level":"certified silver member","website":"https:\/\/www.mariodiveresort.com\/en\/","email":"mariodivingbohol@yahoo.com","latitude":9.5975332,"longitude":123.7538182,"geocoding_status":"OK"},{"label":"Green Fins","region":"Bohol","name":"Seaflower Dive","certification_level":"digital member","website":"https:\/\/www.seaflowerdive.com","email":"mrgomc@gmail.com","latitude":9.5487035,"longitude":123.7694947,"geocoding_status":"OK"},{"label":"Green Fins","region":"Dauin and Zamboanguita","name":"Bongo Bongo divers","certification_level":"digital member","website":"https:\/\/divebongo.com","email":"ask@divebongo.com","latitude":9.187629,"longitude":123.2655698,"geocoding_status":"OK"},{"label":"Green Fins","region":"Dauin and Zamboanguita","name":"Marine Conservation Philippines","certification_level":"digital member","website":"https:\/\/www.marineconservationphilippines.org","email":"info@mcp.email","latitude":9.0802631,"longitude":123.1509094,"geocoding_status":"OK"},{"label":"Green Fins","region":"Siquijor","name":"Last Frontier Dive","certification_level":"digital member","website":"https:\/\/www.lastfrontierdive.com","email":"info@lastfrontierdive.com","latitude":9.1502215,"longitude":123.5010351,"geocoding_status":"OK"},{"label":"Green Fins","region":"El Nido","name":"Adventure Scuba","certification_level":"inactive member","website":"https:\/\/www.facebook.com\/Adventurescubadivingcenter\/","email":"bgmalana@yahoo.com","latitude":11.1989164,"longitude":119.4231658,"geocoding_status":"OK"},{"label":"Green Fins","region":"Dauin and Zamboanguita","name":"ALDIVE resort","certification_level":"inactive member","website":"https:\/\/aldivedumaguete.com\/","email":"info@aldivedumaguete.com","latitude":9.1732183,"longitude":123.252152,"geocoding_status":"OK"},{"label":"Green Fins","region":"Moalboal","name":"Alegria Dive Resort","certification_level":"inactive member","website":"https:\/\/alegriadiveresort.com\/","email":"info@alegriadiveresort.com","latitude":9.7570944,"longitude":123.3444066,"geocoding_status":"OK"},{"label":"Green Fins","region":"El Nido","name":"All (Four) Seasons Beach Resort Booking Office","certification_level":"inactive member","website":"Pas de lien","email":"jrkim_18@yahoo.com","latitude":11.1989164,"longitude":119.4231658,"geocoding_status":"OK"},{"label":"Green Fins","region":"Panglao Island","name":"Alona Divers Diving School","certification_level":"inactive member","website":"http:\/\/www.alona-divers.com\/default.asp","email":"alonadivers@hotmail.com","latitude":9.5482927,"longitude":123.7717608,"geocoding_status":"OK"},{"label":"Green Fins","region":"Mabini","name":"Anilao Scuba Dive Center","certification_level":"inactive member","website":"https:\/\/www.facebook.com\/AnilaoScubaDiveCenter\/","email":"anilaoscubadivecenter@gmail.com","latitude":13.7564435,"longitude":120.9162139,"geocoding_status":"OK"},{"label":"Green Fins","region":"El Nido","name":"APT Travel Inc. El Nido branch","certification_level":"inactive member","website":"https:\/\/www.facebook.com\/APTTravelsInc","email":"vatolentino@apttravels.com.ph","latitude":11.180554,"longitude":119.389613,"geocoding_status":"OK"},{"label":"Green Fins","region":"Puerto Galera","name":"Asia Divers Philippines","certification_level":"inactive member","website":"http:\/\/www.asiadivers.com\/","email":"admin@asiadivers.com","latitude":13.5225036,"longitude":120.9724249,"geocoding_status":"OK"},{"label":"Green Fins","region":"Puerto Galera","name":"BadLadz","certification_level":"inactive member","website":"http:\/\/badladz.com","email":"divebadladz@gmail.com","latitude":13.4889605,"longitude":120.9600009,"geocoding_status":"OK"},{"label":"Green Fins","region":"El Nido","name":"Beachfront Travel and Tour","certification_level":"inactive member","website":"https:\/\/www.facebook.com\/beachfronttravelandtour?mibextid=ZbWKwL","email":"beachfrontelnido@yahoo.com","latitude":11.1633874,"longitude":119.398163,"geocoding_status":"OK"},{"label":"Green Fins","region":"Puerto Galera","name":"Big Apple Dive Resort","certification_level":"inactive member","website":"Pas de lien","email":"bigapplepuertogalera@gmail.com","latitude":13.5200671,"longitude":120.9745249,"geocoding_status":"OK"},{"label":"Green Fins","region":"El Nido","name":"Bird's Nest Travel and Tours","certification_level":"inactive member","website":"Pas de lien","email":"marjelnido@gmail.com","latitude":11.1797226,"longitude":119.3880794,"geocoding_status":"OK"},{"label":"Green Fins","region":"Malapascua Island","name":"Blue Heaven Diveshop","certification_level":"inactive member","website":"Pas de lien","email":"blueheaven@gmail.com","latitude":11.3269652,"longitude":124.116662,"geocoding_status":"OK"},{"label":"Green Fins","region":"Puerto Galera","name":"Blue Lagoon Dive Resort","certification_level":"inactive member","website":"http:\/\/bluelagoondiveresort-philippines.com\/en\/home\/","email":"bluelagoondiveresort@gmail.com","latitude":13.5225614,"longitude":120.9718306,"geocoding_status":"OK"},{"label":"Green Fins","region":"Panglao Island","name":"Blue Water Diving","certification_level":"inactive member","website":"http:\/\/www.bluewaterdive.com\/","email":"mrgomc@gmail.com","latitude":9.5484549,"longitude":123.763364,"geocoding_status":"OK"},{"label":"Green Fins","region":"Panglao Island","name":"Bohol Divers Club","certification_level":"inactive member","website":"https:\/\/www.alonaboholdiversclub.com\/","email":"alcarazsara@netscape.net","latitude":9.5476748,"longitude":123.7697044,"geocoding_status":"OK"},{"label":"Green Fins","region":"Panglao Island","name":"Bohol Sea Resort","certification_level":"inactive member","website":"https:\/\/www.boholsearesort.com","email":"info@boholsearesort.ph","latitude":9.5481354,"longitude":123.7580561,"geocoding_status":"OK"},{"label":"Green Fins","region":"Mactan Island","name":"Boyla Dive Centre","certification_level":"inactive member","website":"Pas de lien","email":"boyladiveresort@yahoo.com","latitude":10.2862095,"longitude":124.0024837,"geocoding_status":"OK"},{"label":"Green Fins","region":"El Nido","name":"Cadlao Tour Booking Office","certification_level":"inactive member","website":"Pas de lien","email":"cadlaotour-beth@yahoo.com","latitude":11.1806133,"longitude":119.3902743,"geocoding_status":"OK"},{"label":"Green Fins","region":"El Nido","name":"Caera Travel and Tours","certification_level":"inactive member","website":"Pas de lien","email":"caeratraveltourelnido@yahoo.com","latitude":11.1799732,"longitude":119.3898887,"geocoding_status":"OK"},{"label":"Green Fins","region":"El Nido","name":"Cashem Travel and Tours","certification_level":"inactive member","website":"https:\/\/www.facebook.com\/gilbertelnido","email":"gilbertelnidocashem13@gmail.com","latitude":11.1812396,"longitude":119.3913111,"geocoding_status":"OK"},{"label":"Green Fins","region":"Moalboal","name":"Cebu Dive Centre","certification_level":"inactive member","website":"http:\/\/www.cebudivecentre.com","email":"info@cebudivecentre.com","latitude":9.9507656,"longitude":123.3657318,"geocoding_status":"OK"},{"label":"Green Fins","region":"Moalboal","name":"Cebu Neptune Diving Adventures","certification_level":"inactive member","website":"Pas de lien","email":"johan@neptunediving.com","latitude":9.948438,"longitude":123.3660674,"geocoding_status":"OK"},{"label":"Green Fins","region":"El Nido","name":"Christian Jay Travel and Tours","certification_level":"inactive member","website":"https:\/\/www.facebook.com\/Ivan.hanz.372","email":"ivanhanz22023@gmail.com","latitude":11.1795644,"longitude":119.3890393,"geocoding_status":"OK"},{"label":"Green Fins","region":"El Nido","name":"Citrin Travel & Tours","certification_level":"inactive member","website":"Pas de lien","email":"citrintravelandtour@yahoo.com","latitude":11.1627947,"longitude":119.3985615,"geocoding_status":"OK"},{"label":"Green Fins","region":"Puerto Galera","name":"Coco Divers","certification_level":"inactive member","website":"Pas de lien","email":"sales@cocobeach.com","latitude":13.5253518,"longitude":120.9631108,"geocoding_status":"OK"},{"label":"Green Fins","region":"Panglao Island","name":"Deep Blue Dive Resort","certification_level":"inactive member","website":"http:\/\/www.deepblue-bohol.co.kr\/","email":"operation@deepbluedivecenter.com","latitude":9.546991,"longitude":123.7530734,"geocoding_status":"OK"},{"label":"Green Fins","region":"El Nido","name":"Deep Blue Dive Seafari Inc.","certification_level":"inactive member","website":"http:\/\/www.deepblueseafari.com\/","email":"deepblueseafari@gmail.com","latitude":11.1801802,"longitude":119.3884548,"geocoding_status":"OK"},{"label":"Green Fins","region":"Panglao Island","name":"Deepper Dive Inc","certification_level":"inactive member","website":"Pas de lien","email":"hanbuty@hanmail.net","latitude":9.547468,"longitude":123.755987,"geocoding_status":"OK"},{"label":"Green Fins","region":"El Nido","name":"Distal's Island Hopping","certification_level":"inactive member","website":"Pas de lien","email":"tanidistal@yahoo.com","latitude":11.1648125,"longitude":119.3985625,"geocoding_status":"OK"},{"label":"Green Fins","region":"Malapascua Island","name":"Dive Society Malapascua","certification_level":"inactive member","website":"Pas de lien","email":"malapascua@divesociety.com","latitude":11.3280695,"longitude":124.1143005,"geocoding_status":"OK"},{"label":"Green Fins","region":"Malapascua Island","name":"Divelink Cebu","certification_level":"inactive member","website":"http:\/\/divelinkcebu.com\/","email":"divelinkcebu@yahoo.com","latitude":11.3284666,"longitude":124.114352,"geocoding_status":"OK"},{"label":"Green Fins","region":"Puerto Galera","name":"Diving Park","certification_level":"inactive member","website":"https:\/\/www.divingpark.com","email":"park3kr@gmail.com","latitude":13.5246931,"longitude":120.9688926,"geocoding_status":"OK"},{"label":"Green Fins","region":"El Nido","name":"Dolarog Beach Resort","certification_level":"inactive member","website":"http:\/\/www.dolarog.com","email":"edolarog@gmail.com","latitude":11.135674,"longitude":119.397802,"geocoding_status":"OK"},{"label":"Green Fins","region":"El Nido","name":"El Bacuit Travel and Tours","certification_level":"inactive member","website":"Pas de lien","email":"elbacuit_philippines@yahoo.com","latitude":11.1700231,"longitude":119.3949789,"geocoding_status":"OK"},{"label":"Green Fins","region":"Puerto Galera","name":"El Canonero","certification_level":"inactive member","website":"http:\/\/www.divingresortelcanonero.com\/index_eng.html","email":"info@divingresortelcanonero.com","latitude":13.5024453,"longitude":120.9527376,"geocoding_status":"OK"},{"label":"Green Fins","region":"El Nido","name":"El Nido Resorts - Apulit Island - Diving Centre","certification_level":"inactive member","website":"Pas de lien","email":"asamala@elnidoresorts.com","latitude":11.1989164,"longitude":119.4231658,"geocoding_status":"OK"},{"label":"Green Fins","region":"El Nido","name":"El Nido Resorts - Apulit Island - Snorkel Centre","certification_level":"inactive member","website":"Pas de lien","email":"asamala@elnidoresorts.com","latitude":11.1989164,"longitude":119.4231658,"geocoding_status":"OK"},{"label":"Green Fins","region":"El Nido","name":"El Nido Resorts - Lagen Island - Diving Centre","certification_level":"inactive member","website":"Pas de lien","email":"csantos@elnidoresorts.com","latitude":11.0872124,"longitude":119.397616,"geocoding_status":"OK"},{"label":"Green Fins","region":"El Nido","name":"El Nido Resorts - Lagen Island - Snorkel Centre","certification_level":"inactive member","website":"Pas de lien","email":"csantos@elnidoresorts.com","latitude":11.0872124,"longitude":119.397616,"geocoding_status":"OK"},{"label":"Green Fins","region":"El Nido","name":"El Nido Resorts - Miniloc  Island - Diving Centre","certification_level":"inactive member","website":"Pas de lien","email":"Nbarrameda@elnidoresorts.com","latitude":11.1494458,"longitude":119.3201341,"geocoding_status":"OK"},{"label":"Green Fins","region":"El Nido","name":"El Nido Resorts - Miniloc  Island - Snorkel Centre","certification_level":"inactive member","website":"Pas de lien","email":"Nbarrameda@elnidoresorts.com","latitude":11.1494458,"longitude":119.3201341,"geocoding_status":"OK"},{"label":"Green Fins","region":"El Nido","name":"El Nido Resorts - Pangulasian Island - Diving Centre","certification_level":"inactive member","website":"Pas de lien","email":"Mpolicarpio@elnidoresorts.com","latitude":11.1156828,"longitude":119.3322944,"geocoding_status":"OK"},{"label":"Green Fins","region":"El Nido","name":"El Nido Resorts - Pangulasian Island - Snorkel Centre","certification_level":"inactive member","website":"Pas de lien","email":"Mpolicarpio@elnidoresorts.com","latitude":11.1156828,"longitude":119.3322944,"geocoding_status":"OK"},{"label":"Green Fins","region":"Puerto Galera","name":"Elizabeth's Hideaway - Sandbar","certification_level":"inactive member","website":"Pas de lien","email":"elizabethhideaway@gmail.com","latitude":13.5105023,"longitude":120.9466929,"geocoding_status":"OK"},{"label":"Green Fins","region":"Malapascua Island","name":"Emerald Green Malapascua","certification_level":"inactive member","website":"Pas de lien","email":"info@emeraldgreen-malapascua.com","latitude":11.3278644,"longitude":124.1205847,"geocoding_status":"OK"},{"label":"Green Fins","region":"Malapascua Island","name":"Exotic Dive Resort","certification_level":"inactive member","website":"http:\/\/www.malapascua.net\/","email":"gopro@malapascua.net","latitude":11.3270333,"longitude":124.1154059,"geocoding_status":"OK"},{"label":"Green Fins","region":"El Nido","name":"Fast & Furious Booking Office","certification_level":"inactive member","website":"Pas de lien","email":null,"latitude":11.1989164,"longitude":119.4231658,"geocoding_status":"OK"},{"label":"Green Fins","region":"Malapascua Island","name":"Fish Buddies","certification_level":"inactive member","website":"Pas de lien","email":"fishbuddiesmalapascua@gmail.com","latitude":11.3269415,"longitude":124.1184212,"geocoding_status":"OK"},{"label":"Green Fins","region":"Puerto Galera","name":"Fishermen's Cove (Diver's Cove)","certification_level":"inactive member","website":"http:\/\/www.fishermenscove.com","email":"info@fishermenscove.com","latitude":13.4447529,"longitude":120.9187827,"geocoding_status":"OK"},{"label":"Green Fins","region":"Malapascua Island","name":"French Kiss Divers - Malapascua","certification_level":"inactive member","website":"http:\/\/malapascua-plongee.com\/","email":"fkdmalapascua@gmail.com","latitude":11.3269159,"longitude":124.118034,"geocoding_status":"OK"},{"label":"Green Fins","region":"Puerto Galera","name":"Frontier Scuba","certification_level":"inactive member","website":"http:\/\/www.frontierscuba.com","email":"frontierscuba@gmail.com","latitude":13.5210529,"longitude":120.9736846,"geocoding_status":"OK"},{"label":"Green Fins","region":"Malapascua Island","name":"Fun'n'Sun - Malapascua","certification_level":"inactive member","website":"http:\/\/www.funsundivetravel.com\/","email":"sito@funsundivetravel.com","latitude":11.3358464,"longitude":124.1156362,"geocoding_status":"OK"},{"label":"Green Fins","region":"El Nido","name":"Gemini Travel and Tours","certification_level":"inactive member","website":"Pas de lien","email":"geminitravelandtours@yahoo.com","latitude":11.1795644,"longitude":119.3890393,"geocoding_status":"OK"},{"label":"Green Fins","region":"Panglao Island","name":"Go Deep","certification_level":"inactive member","website":"http:\/\/godeep.ph\/","email":"office@godeep.ph","latitude":9.5502422,"longitude":123.7763314,"geocoding_status":"OK"},{"label":"Green Fins","region":"El Nido","name":"Haqqy Life Travel & Tours","certification_level":"inactive member","website":"Pas de lien","email":"hello.haqqylife@gmail.com","latitude":11.1811869,"longitude":119.3918843,"geocoding_status":"OK"},{"label":"Green Fins","region":"El Nido","name":"Hawaiian Adventure","certification_level":"inactive member","website":"Pas de lien","email":"hawaiian_tours@yahoo.com","latitude":11.1989164,"longitude":119.4231658,"geocoding_status":"OK"},{"label":"Green Fins","region":"El Nido","name":"Islandfront Island Tour Booking Office","certification_level":"inactive member","website":"Pas de lien","email":"islandfront_cottages@yahoo.com","latitude":11.1989164,"longitude":119.4231658,"geocoding_status":"OK"},{"label":"Green Fins","region":"El Nido","name":"Islanen Outdoor Tours","certification_level":"inactive member","website":"Pas de lien","email":"loy_elnido@yahoo.com","latitude":11.1818604,"longitude":119.3920162,"geocoding_status":"OK"},{"label":"Green Fins","region":"Malapascua Island","name":"Johan Dive","certification_level":"inactive member","website":"http:\/\/www.johandive.com\/","email":"chelhwanoh@naver.com","latitude":11.3284387,"longitude":124.1209502,"geocoding_status":"OK"},{"label":"Green Fins","region":"Puerto Galera","name":"John and Ann Travel and Tours","certification_level":"inactive member","website":"https:\/\/www.Jaatravelandtours.com","email":"jaatravelandtour@gmail.com","latitude":13.5054746,"longitude":120.9325074,"geocoding_status":"OK"},{"label":"Green Fins","region":"Panglao Island","name":"Just Dive Bohol","certification_level":"inactive member","website":"Pas de lien","email":"hum2d@naver.com","latitude":9.5873563,"longitude":123.8076302,"geocoding_status":"OK"},{"label":"Green Fins","region":"El Nido","name":"Kapupuruan Travel and Tours","certification_level":"inactive member","website":"https:\/\/www.facebook.com\/Kapupuruantours","email":"alfredhgustilo@gmail.com","latitude":11.1815006,"longitude":119.3913193,"geocoding_status":"OK"},{"label":"Green Fins","region":"El Nido","name":"Leatherback Travel and Cruise","certification_level":"inactive member","website":"https:\/\/www.facebook.com\/leatherbacktravelandcruise","email":"leatherbackcruise@gmail.com","latitude":11.1796055,"longitude":119.3872065,"geocoding_status":"OK"},{"label":"Green Fins","region":"El Nido","name":"Life Simple Pleasure Travel and Tours","certification_level":"inactive member","website":"Pas de lien","email":null,"latitude":11.1818399,"longitude":119.3918347,"geocoding_status":"OK"},{"label":"Green Fins","region":"Malapascua Island","name":"Little Mermaid Dive Resort","certification_level":"inactive member","website":"Pas de lien","email":"malapascua@live.nl","latitude":11.3269548,"longitude":124.1168699,"geocoding_status":"OK"},{"label":"Green Fins","region":"Moalboal","name":"M&L Divers Town","certification_level":"inactive member","website":"Pas de lien","email":"oceanglobe@hotmail.co.jp","latitude":9.9462693,"longitude":123.3681803,"geocoding_status":"OK"},{"label":"Green Fins","region":"Puerto Galera","name":"Marco Vincent Dive Resort","certification_level":"inactive member","website":"http:\/\/www.mvdive.com","email":"om@mvdive.com","latitude":13.5061351,"longitude":120.9062404,"geocoding_status":"OK"},{"label":"Green Fins","region":"El Nido","name":"Midnight Sun Island Tour","certification_level":"inactive member","website":"http:\/\/midnightsunelnido.wordpress.com\/","email":"midnightsun_elnido_islandtour@yahoo.com","latitude":11.1989164,"longitude":119.4231658,"geocoding_status":"OK"},{"label":"Green Fins","region":"El Nido","name":"Nido Cruiser","certification_level":"inactive member","website":"Pas de lien","email":null,"latitude":11.1989164,"longitude":119.4231658,"geocoding_status":"OK"},{"label":"Green Fins","region":"El Nido","name":"Northern Hope Tours","certification_level":"inactive member","website":"Pas de lien","email":"northernhopetours@gmail.com","latitude":11.1801134,"longitude":119.3873736,"geocoding_status":"OK"},{"label":"Green Fins","region":"Puerto Galera","name":"Octopus Divers","certification_level":"inactive member","website":"https:\/\/www.mac-octopusdivers.com","email":"info@mac-octopusdivers.com","latitude":13.520624,"longitude":120.9774319,"geocoding_status":"OK"},{"label":"Green Fins","region":"Puerto Galera","name":"Paradise Dive Resort","certification_level":"inactive member","website":"http:\/\/www.paradise-dive.net","email":"diver_ricky@hotmail.com","latitude":13.5214564,"longitude":120.9781222,"geocoding_status":"OK"},{"label":"Green Fins","region":"Panglao Island","name":"Paraiso Chino Dive Center","certification_level":"inactive member","website":"Pas de lien","email":"charles_zhang810@126.com","latitude":9.5873563,"longitude":123.8076302,"geocoding_status":"OK"},{"label":"Green Fins","region":"Panglao Island","name":"Philippine Fun Divers","certification_level":"inactive member","website":"https:\/\/www.boholfundivers.com","email":"holger.horn@gmail.com","latitude":9.548181,"longitude":123.771208,"geocoding_status":"OK"},{"label":"Green Fins","region":"Panglao Island","name":"Piratas Alona Diving Center","certification_level":"inactive member","website":"https:\/\/www.piratasdivecenter.com","email":"piratasalonadivingcenter@gmail.com","latitude":9.548715,"longitude":123.7735554,"geocoding_status":"OK"},{"label":"Green Fins","region":"Puerto Galera","name":"Puerto Galera Online Services","certification_level":"inactive member","website":"Pas de lien","email":"puertogaleraoffice@gmail.com","latitude":13.5029592,"longitude":120.9594039,"geocoding_status":"OK"},{"label":"Green Fins","region":"Puerto Galera","name":"Red Sun Dive Resort","certification_level":"inactive member","website":"Pas de lien","email":"redsundiver@hotmail.com","latitude":13.5205929,"longitude":120.976866,"geocoding_status":"OK"},{"label":"Green Fins","region":"Puerto Galera","name":"Reef Encounters","certification_level":"inactive member","website":"https:\/\/www.reef-encounters.ph@gmail.com","email":"reefencounters.ph@gmail.com","latitude":13.5217656,"longitude":120.9729345,"geocoding_status":"OK"},{"label":"Green Fins","region":"Malapascua Island","name":"Sea Explorers","certification_level":"inactive member","website":"Pas de lien","email":"malapascua@sea-explorers.com","latitude":11.3358464,"longitude":124.1156362,"geocoding_status":"OK"},{"label":"Green Fins","region":"Dauin and Zamboanguita","name":"Sea Explorers Dauin","certification_level":"inactive member","website":"http:\/\/www.sea-explorers.com\/dauin\/","email":"jan@sea-explorers.com","latitude":9.1913209,"longitude":123.2709107,"geocoding_status":"OK"},{"label":"Green Fins","region":"Puerto Galera","name":"Sea Rider Dive Center","certification_level":"inactive member","website":"Pas de lien","email":"mark@seariderdivecenter.com","latitude":13.5212192,"longitude":120.9731527,"geocoding_status":"OK"},{"label":"Green Fins","region":"Malapascua Island","name":"Sea Slug Divers","certification_level":"inactive member","website":"Pas de lien","email":"rhein1118@yahoo.com","latitude":11.3281783,"longitude":124.1160786,"geocoding_status":"OK"},{"label":"Green Fins","region":"Panglao Island","name":"Seaquest Dive Center Bohol","certification_level":"inactive member","website":"https:\/\/www.seaquestdivecenter.com","email":"ben@seaquestdivecenter.com","latitude":9.5485728,"longitude":123.7728485,"geocoding_status":"OK"},{"label":"Green Fins","region":"El Nido","name":"Servant Tour Booking Office","certification_level":"inactive member","website":"Pas de lien","email":null,"latitude":11.1989164,"longitude":119.4231658,"geocoding_status":"OK"},{"label":"Green Fins","region":"Panglao Island","name":"Sierra Madre Divers","certification_level":"inactive member","website":"https:\/\/www.smdiversbohol.com","email":"info@smdiversbohol.com","latitude":9.548663,"longitude":123.7731619,"geocoding_status":"OK"},{"label":"Green Fins","region":"Puerto Galera","name":"South Sea Divers","certification_level":"inactive member","website":"Pas de lien","email":"dive@southseadivers.com","latitude":13.520915,"longitude":120.974062,"geocoding_status":"OK"},{"label":"Green Fins","region":"El Nido","name":"Spur Travel & Tours","certification_level":"inactive member","website":"https:\/\/www.spurtravelpalawan.com","email":"spurtravel@yahoo.com","latitude":11.1616185,"longitude":119.3985906,"geocoding_status":"OK"},{"label":"Green Fins","region":"El Nido","name":"Stingray Travel and Tours","certification_level":"inactive member","website":"Pas de lien","email":null,"latitude":11.1795644,"longitude":119.3890393,"geocoding_status":"OK"},{"label":"Green Fins","region":"El Nido","name":"Stunning Vistas Island Tours","certification_level":"inactive member","website":"Pas de lien","email":"reservation_stunningvista@yahoo.com","latitude":11.1989164,"longitude":119.4231658,"geocoding_status":"OK"},{"label":"Green Fins","region":"El Nido","name":"Submariner Diving Centre","certification_level":"inactive member","website":"http:\/\/www.submariner-diving.com\/","email":"info@submariner-diving.com","latitude":11.1811662,"longitude":119.3909735,"geocoding_status":"OK"},{"label":"Green Fins","region":"Puerto Galera","name":"SYPHIL TRAVEL AND TOURS","certification_level":"inactive member","website":"Pas de lien","email":"cg.syphilentertainmentprod@gmail.com","latitude":13.4447529,"longitude":120.9187827,"geocoding_status":"OK"},{"label":"Green Fins","region":"Moalboal","name":"The Blue Abyss Dive Shop","certification_level":"inactive member","website":"http:\/\/www.blueabyssdiving.com\/","email":"info@blueabyssdiving.com","latitude":9.9461299,"longitude":123.3667854,"geocoding_status":"OK"},{"label":"Green Fins","region":"Malapascua Island","name":"Thresher Cove Divers","certification_level":"inactive member","website":"Pas de lien","email":"dish@threshercove.com","latitude":11.34038,"longitude":124.11564,"geocoding_status":"OK"},{"label":"Green Fins","region":"Puerto Galera","name":"Tina's Reef Divers","certification_level":"inactive member","website":"Pas de lien","email":"info@tinasreefdivers.com","latitude":13.5218256,"longitude":120.9785421,"geocoding_status":"OK"},{"label":"Green Fins","region":"El Nido","name":"Valric Booking Office","certification_level":"inactive member","website":"Pas de lien","email":"ruel.enaya@yahoo.com","latitude":11.1989164,"longitude":119.4231658,"geocoding_status":"OK"},{"label":"Green Fins","region":"Puerto Galera","name":"Verde Divers","certification_level":"inactive member","website":"Pas de lien","email":"gulidiving@gmail.com","latitude":13.5207716,"longitude":120.9746413,"geocoding_status":"OK"},{"label":"Green Fins","region":"Dauin and Zamboanguita","name":"Wild Scuba Dive Center","certification_level":"inactive member","website":"https:\/\/web.facebook.com\/wildscubaph\/?_rdc=1&_rdr","email":"wildscubaph@gmail.com","latitude":9.139966,"longitude":123.2290355,"geocoding_status":"OK"},{"label":"Green Fins","region":"Puerto Galera","name":"Big Apple Dive Resort","certification_level":"inactive member","website":"https:\/\/www.bigapplediveresort.com","email":"jdthorp@hotmail.com","latitude":13.5200671,"longitude":120.9745249,"geocoding_status":"OK"},{"label":"Green Fins","region":"Dauin and Zamboanguita","name":"Liquid Dive Dumaguete","certification_level":"inactive member","website":"Pas de lien","email":"dive@liquiddumaguete.com","latitude":9.211231,"longitude":123.2846069,"geocoding_status":"OK"},{"label":"Green Fins","region":"Dauin and Zamboanguita","name":"Mike's Dauin Beach Resort","certification_level":"inactive member","website":"Pas de lien","email":"info@mikes-beachresort.com","latitude":9.189743,"longitude":123.2707061,"geocoding_status":"OK"},{"label":"Green Fins","region":"Boracay","name":"New Wave Divers Boracay","certification_level":"inactive member","website":"Pas de lien","email":"dive@newwavediversboracay.com","latitude":11.966702,"longitude":121.9208253,"geocoding_status":"OK"},{"label":"Green Fins","region":"Mabini","name":"Solitude Acacia Resort","certification_level":"inactive member","website":"https:\/\/www.solitude.world","email":"emailus@solitude-acacia.com","latitude":13.7275275,"longitude":120.884177,"geocoding_status":"OK"}]